<?xml version='1.0' encoding='UTF-8'?>
<!DOCTYPE city_report SYSTEM "/Users/lauratonsi/ELABORAZIONE/data/city_report.dtd">
<city_report appeal_score="50.9">
  <metadata>
    <title>Nicosia</title>
    <name_it>Nicosia</name_it>
    <flag>🇨🇾</flag>
  </metadata>
  <indicators>
    <hotel_count>14</hotel_count>
    <hotel_price>113.22</hotel_price>
    <safety index_score="67.9"/>
    <environment green_score="40"/>
    <cost_index value="61.2"/>
    <economic_accessibility score="38.8"/>
  </indicators>
  <transport>La Città Vecchia è compatta e facilmente esplorabile a piedi. Per l'area metropolitana è in sviluppo una rete di autobus e taxi privati a prezzi accessibili.</transport>
  <accommodation>
    <hotel>
      <name>Averof Hotel</name>
      <price>sgl €35, dbl €55</price>
    </hotel>
    <hotel>
      <name>Sky Hotel</name>
      <price>rates from €60</price>
    </hotel>
    <hotel>
      <name>Asty Hotel</name>
      <price>sgl from €45, dbl from €65</price>
    </hotel>
    <hotel>
      <name>Kipros Accommodation</name>
      <price>rates from €44</price>
    </hotel>
    <hotel>
      <name>Delphi Hotel</name>
      <price>rates around €50</price>
    </hotel>
  </accommodation>
  <highlights>
    <attraction lat="35.1764" lon="33.3644">
      <name>Selimiye Mosque</name>
      <description>Former cathedral converted into a mosque.</description>
    </attraction>
    <attraction lat="35.174" lon="33.3614">
      <name>Ledra Street</name>
      <description>Main shopping street and crossing point to the north.</description>
    </attraction>
    <attraction lat="35.1717" lon="33.3556">
      <name>Cyprus Museum</name>
      <description>Oldest and largest archaeological museum in Cyprus.</description>
    </attraction>
    <attraction lat="35.1814" lon="33.3614">
      <name>Kyrenia Gate</name>
      <description>One of the three gates in the Venetian walls.</description>
    </attraction>
    <attraction lat="35.1719" lon="33.3667">
      <name>Venetian Walls</name>
      <description>Circular fortifications surrounding the old city.</description>
    </attraction>
    <attraction lat="35.1761" lon="33.3625">
      <name>Buyuk Han</name>
      <description>Largest caravanserai on the island of Cyprus.</description>
    </attraction>
    <attraction lat="35.1731" lon="33.3678">
      <name>St John's Cathedral</name>
      <description>Main church of the Church of Cyprus.</description>
    </attraction>
    <attraction lat="35.1706" lon="33.3611">
      <name>Leventis Museum</name>
      <description>Museum dedicated to the history of Nicosia.</description>
    </attraction>
    <attraction lat="35.1736" lon="33.3711">
      <name>Liberty Monument</name>
      <description>Sculpture commemorating EOKA's fight for independence.</description>
    </attraction>
    <attraction lat="35.1711" lon="33.3617">
      <name>Shacolas Tower</name>
      <description>Observatory offering views of the whole city.</description>
    </attraction>
  </highlights>
  <description>Bridge between Europe and the Middle East, Nicosia offers a privileged climate and a very competitive cost of living. Its development plan aims to integrate architectural modernity with the preservation of historic walls.</description>
  <wiki_intro>Nicosia (Greek: Λευκωσία; Turkish: Lefkoşa) is the capital of Cyprus and is the largest city by far. While it may not boast the same abundance of archaeological sites and lively beaches as other parts of Cyprus, the city's Old Town, with its museums and churches, is still a pleasant place to explore. What's more, with fewer tourists than the resorts on the southern coast, Nicosia maintains a more authentically Cypriot atmosphere.  Take a stroll through the city's charming streets, where you'll find delightful cafes serving traditional Cypriot coffee, as well as woodworking shops tucked away in unexpected corners. And don't miss the opportunity to visit the Green Line, the boundary that divides North from South. As the financial and administrative center of the island, Nicosia is a haven for shopping enthusiasts. Nicosia is one of the very few divided capitals in the world. The barbed wire and guardtowers of the Green Line cuts the town in two, with the northern side being the capital of the self-proclaimed Northern Cyprus and the southern half being the capital of the Republic of Cyprus. The municipality of Nicosia governs only the central portion, but the city now sprawls for several kilometers and has engulfed surrounding villages and settlements. The population of the Greek part hovers around 245,000 in 2020 (a third of the total population of Cyprus), but the city has a feel of one much larger. It is the administrative and financial hub of the island as well as home to several universities, colleges and other educational establishments. It hosts most foreign embassies and offshore companies (a big industry in Cyprus nowadays). Along with its international students and foreign workers it has developed a truly cosmopolitan feel. It also acts as a separate administrative capital for the Nicosia district. One of the southernmost locations in Europe, Nicosia's climate is classified as subtropical and semi-arid. Summers are very hot and dry, you can expect temperatures to regularly rise above 35°C. Pleasantly warm temperatures are common early in the spring and late in the autumn, making these good times to visit. Winter is the wettest time of the year, though even then just 7-8 days of the month see rain. During mid-winter, the temperature may sometimes drop below freezing and light frost and sleet occurs, but snowfall is very rare. Cyprus is in the Levant, and as with other places in this part of the world it has a long and tumultuous history and has seen many great empires come and go. Taking that into consideration, Nicosia has surprisingly few sights dating back from antiquity or even from the middle ages. Nicosia is in the middle of the island and the region has been inhabited since around 2500 BC. A city-state by the name of Ledra was established here sometimes after the end of the Trojan War (1180 BC), though not much of it is known today. By 330 BC Ledra was recorded as a small unimportant farming town. The following high point came in...</wiki_intro>
  <landmark_image>assets/images/nicosia.jpg</landmark_image>
  <nightlife>
    <venue lat="35.1596682" lon="33.3561106">
      <name>Abbey Garden</name>
      <category>pub</category>
    </venue>
    <venue lat="35.1636055" lon="33.3584549">
      <name>Allou</name>
      <category>pub</category>
    </venue>
    <venue lat="35.1630446" lon="33.3551565">
      <name>Babylon</name>
      <category>pub</category>
    </venue>
    <venue lat="35.1630898" lon="33.3585924">
      <name>BARaki Live</name>
      <category>bar</category>
    </venue>
    <venue lat="35.1646859" lon="33.3605366">
      <name>Blurry Lights</name>
      <category>bar</category>
    </venue>
    <venue lat="35.1737286" lon="33.3612322">
      <name>Brewfellas</name>
      <category>bar</category>
    </venue>
    <venue lat="35.168404" lon="33.3592474">
      <name>Caprice</name>
      <category>pub</category>
    </venue>
    <venue lat="35.1626192" lon="33.3541143">
      <name>Carry Pride</name>
      <category>bar</category>
    </venue>
  </nightlife>
</city_report>
