<?xml version='1.0' encoding='UTF-8'?>
<!DOCTYPE city_report SYSTEM "city_report.dtd">
<city_report appeal_score="44.8">
  <metadata>
    <title>Valletta</title>
    <name_it>La Valletta</name_it>
    <flag>🇲🇹</flag>
  </metadata>
  <indicators>
    <hotel_count>12</hotel_count>
    <hotel_price>126.54</hotel_price>
    <safety index_score="61.2"/>
    <environment green_score="35"/>
    <cost_index value="68.4"/>
    <economic_accessibility score="31.6"/>
  </indicators>
  <transport>By bus In front of the main gate of Valletta is the main bus station for the entire island, and bus lines covering the island in a grid, most of them spread out from here and return to here.</transport>
  <accommodation>
    <hotel>
      <name>Asti Guesthouse</name>
      <price>€20</price>
    </hotel>
    <hotel>
      <name>Grand Harbour Hotel</name>
      <price>standard double rooms from €100 (from €80 in low season), including breakfast</price>
    </hotel>
    <hotel>
      <name>British Hotel</name>
      <price>rates from about €120</price>
    </hotel>
    <hotel>
      <name>Valletta G-House</name>
      <price>€150/night</price>
    </hotel>
    <hotel>
      <name>Valletta Suites</name>
      <price>€140 per suite per night</price>
    </hotel>
  </accommodation>
  <highlights>
    <attraction lat="35.8949" lon="14.5123">
      <name>Upper Barrakka</name>
      <description>Public gardens with panoramic views of the harbor.</description>
    </attraction>
    <attraction lat="35.8977" lon="14.5126">
      <name>St. John's Cathedral</name>
      <description>Highly decorated Baroque church with Caravaggio art.</description>
    </attraction>
    <attraction lat="35.8944" lon="14.5186">
      <name>Grand Harbour</name>
      <description>The historic natural harbor of Malta.</description>
    </attraction>
    <attraction lat="35.9019" lon="14.5186">
      <name>Fort St. Elmo</name>
      <description>Star-shaped fort and National War Museum.</description>
    </attraction>
    <attraction lat="35.8986" lon="14.5136">
      <name>Grandmaster's Palace</name>
      <description>The historic center of government in Malta.</description>
    </attraction>
    <attraction lat="35.8983" lon="14.5128">
      <name>Republic Street</name>
      <description>The main shopping and commercial street.</description>
    </attraction>
    <attraction lat="35.8979" lon="14.5113">
      <name>National Archaeology</name>
      <description>Museum housing prehistoric artifacts from the islands.</description>
    </attraction>
    <attraction lat="35.8997" lon="14.5139">
      <name>Casa Rocca Piccola</name>
      <description>16th-century palace belonging to a noble family.</description>
    </attraction>
    <attraction lat="35.8997" lon="14.5125">
      <name>Teatru Manoel</name>
      <description>One of the oldest working theaters in Europe.</description>
    </attraction>
    <attraction lat="35.8989" lon="14.5086">
      <name>Hastings Gardens</name>
      <description>Quiet gardens on top of the St. John's Bastion.</description>
    </attraction>
  </highlights>
  <description>Fortezza barocca nel cuore del Mediterraneo, La Valletta è un museo a cielo aperto dalla sicurezza impeccabile. Le sue dimensioni ridotte nascondono un'energia culturale vibrante e un clima mite tutto l'anno.</description>
  <wiki_intro>Valletta or Il-Belt is the capital of Malta. Historically built as harbour city to first capital, Valletta preserves much of its 16th-century architectural heritage built under the Hospitallers. Valletta was one of the earliest sites inscribed on the UNESCO World Heritage List. Referred to colloquially as Il-Belt ("The City") in Maltese, it takes its name from its founder, Grandmaster Jean Parisot de Valette. With a population of less than 5,200 in 2021, it is the least populated national capital in the European Union. The population of the urban area is 480,000 (2020), so Valletta doesn't feel like a small town. It is also the southernmost capital in the union, and one of only two without rail-based public transit (the other being Nicosia in Cyprus). Valletta was a "European Capital of Culture" for 2018, an honour it shared with Leeuwarden. Being the southernmost European capital except for Nicosia and sitting next to the Mediterranean, Valletta is amongst the places in Europe that have mild and warm weather in most seasons. Nighttime lows are around 9/10°C in the winter, however at that time of the year, it's comparatively rainy. During the summer, expect sunny, hot weather. Most bus routes and many arterial roads converge on Valletta. However, inside the city, there are many one-way streets and some pedestrian zones. Parking can be difficult. There is a large multi-storey car park in Floriana, about half a kilometre from the City Gate entrance to Valletta. In front of the...</wiki_intro>
  <landmark_image>assets/images/valletta.jpg</landmark_image>
</city_report>
