<?xml version='1.0' encoding='UTF-8'?>
<!DOCTYPE city_report SYSTEM "/Users/lauratonsi/ELABORAZIONE/data/city_report.dtd">
<city_report appeal_score="67.9">
  <metadata>
    <title>Zagreb</title>
    <name_it>Zagabria</name_it>
    <flag>🇭🇷</flag>
  </metadata>
  <indicators>
    <hotel_count>30</hotel_count>
    <hotel_price>101.38</hotel_price>
    <safety index_score="77.1"/>
    <environment green_score="70"/>
    <cost_index value="54.8"/>
    <economic_accessibility score="45.2"/>
  </indicators>
  <transport>Buses leave from the airport at 07:00 and every 30 minutes between 08:00 and 20:00. Beyond these hours, there are buses leaving to the main bus station every time a Croatia Airlines plane lands. When traveling to the airport from the main Zagreb bus station, the buses are scheduled between 04:30 and 20:30.</transport>
  <accommodation>
    <hotel>
      <name>Chillout Hostel Zagreb</name>
      <price>From €25</price>
    </hotel>
    <hotel>
      <name>Fulir Hostel Zagreb</name>
      <price>Prezzo N/D</price>
    </hotel>
    <hotel>
      <name>Funk Lounge</name>
      <price>dorm from: €13, private from: €20</price>
    </hotel>
    <hotel>
      <name>Hobo Bear Hostel</name>
      <price>Dorm bed: €14</price>
    </hotel>
    <hotel>
      <name>Hostel Lika</name>
      <price>Dorm bed: €13.5</price>
    </hotel>
  </accommodation>
  <highlights>
    <attraction lat="45.8144" lon="15.9792">
      <name>Zagreb Cathedral</name>
      <description>Gothic cathedral and tallest building in Croatia.</description>
    </attraction>
    <attraction lat="45.8164" lon="15.9739">
      <name>St. Mark's Church</name>
      <description>Church famous for its colorful tiled roof.</description>
    </attraction>
    <attraction lat="45.815" lon="15.9733">
      <name>Upper Town</name>
      <description>Historic medieval core of Zagreb (Gradec).</description>
    </attraction>
    <attraction lat="45.8131" lon="15.9772">
      <name>Ban Jelacic Square</name>
      <description>The central square and meeting point of the city.</description>
    </attraction>
    <attraction lat="45.8242" lon="16.0189">
      <name>Maksimir Park</name>
      <description>Oldest public park in South East Europe.</description>
    </attraction>
    <attraction lat="45.815" lon="15.9731">
      <name>Museum of Broken Relationships</name>
      <description>Unique museum dedicated to failed love stories.</description>
    </attraction>
    <attraction lat="45.8139" lon="15.9775">
      <name>Dolac Market</name>
      <description>The main open-air farmers market.</description>
    </attraction>
    <attraction lat="45.8144" lon="15.9733">
      <name>Lotrščak Tower</name>
      <description>13th-century tower with a daily cannon shot.</description>
    </attraction>
    <attraction lat="45.8106" lon="15.9783">
      <name>Zrinjevac Park</name>
      <description>Park with a music pavilion and fountains.</description>
    </attraction>
    <attraction lat="45.8086" lon="15.9678">
      <name>Mimara Museum</name>
      <description>Art museum housing the collection of Wiltrud and Ante Mimara.</description>
    </attraction>
  </highlights>
  <description>A city with a dual character, Central European and Mediterranean, Zagreb offers relaxed and safe livability. Its horseshoe-shaped parks and café life make it welcoming and lively.</description>
  <wiki_intro>Zagreb is a city in Central Croatia and the capital of Croatia. The city has a charming medieval 'old city' with architecture and cobbled streets reminiscent of Vienna, Budapest, Prague and other Central European capitals. Zagreb is a vibrant city of around 770,000 people (2021, metropolitan area: 1,100,000). In 2017 it was visited by over a million tourists, mainly from Austria, Germany and Italy. Zagreb is also well known for its Advent festival, which occurs from December to early January, boasting vibrant nightlife and additional cultural and gastronomic activities. *  Other information points are located at the airport, bus station, railway station and at the Lotrščak Tower. Getting there: * Buses leave from the airport at 07:00 and every 30 minutes between 08:00 and 20:00. Beyond these hours, there are buses leaving to the main bus station every time a Croatia Airlines plane lands. When traveling to the airport from the main Zagreb bus station, the buses are scheduled between 04:30 and 20:30. A journey takes about 30 min. The price of the single ticket is . Online timetable can be checked at the Pleso prijevoz website. Airport buses leave from the main bus station which is in the wider city center; they leave from its northeast wing (toward the city)—look for "Croatia Airlines" and "Eurolines" banners on the building.
* A cheaper local ZET bus 290 also goes to the city center (and back to the airport) from the main road outside the terminal. 
* You can also order a taxi, Bolt or Uber. A ride from the airport to the city center can cost from . Five trains a day run from Ljubljana, taking 2 hr 30 min via Zidani Most and the border at Dobova. Two of these start from Villach (4-5 hr). Tickets cannot be purchased online; they can only be purchased at the station. Second-class tickets are for €9, but first-class is also available. From Zurich, Munich or Vienna change at Villach. From Budapest change at Graz and Zidani Most.  Domestic trains are slow. Two per day are from Rijeka (one direct, one with a change), taking 5 hours via just about every intervening village with a j or v in its name. One train a day from Split takes 8 hours. Three per day run from Hrvatska Kostajnica, taking 1 hr 40 min. Local trains fan out to Harmica, Ivanić-Grad, Koprivnica, Novoselec, Ogulin, Savski Marof, Sisak Caprag, Vinkovci, Virovitica and Zabok.  See Croatia Railways for timetables and tickets. Trains no longer cross the border to Sarajevo in Bosnia. The work-around rail route is to take the train from Zagreb main station at 09:00 to Hrvatska Kostajnica, arriving by 10:45. This is 3 km from the Bosnian border crossing, either take a taxi, or walk south into town then east and cross the river by the first bridge. Once you've entered Bosnia, find a taxi to Banja Luka, 100 km southeast and taking 90 min. You'll reach Banja Luka in time for the 15:45 local train to Sarajevo via Zenica, arriving by 20:40. Or take the direct bus from Zagreb to Banja Luka. ...</wiki_intro>
  <landmark_image>assets/images/zagreb.jpg</landmark_image>
  <nightlife>
    <venue lat="45.8074304" lon="15.9841948">
      <name>&amp;amp; More by Sheraton bar</name>
      <category>bar</category>
    </venue>
    <venue lat="45.8007542" lon="15.9723829">
      <name>808 bar</name>
      <category>bar</category>
    </venue>
    <venue lat="45.7872642" lon="15.9529793">
      <name>A most unusual garden</name>
      <category>bar</category>
    </venue>
    <venue lat="45.7859116" lon="15.9528122">
      <name>Absolut bar</name>
      <category>bar</category>
    </venue>
    <venue lat="45.7957109" lon="15.9000845">
      <name>After Eight</name>
      <category>bar</category>
    </venue>
    <venue lat="45.8088727" lon="15.9973586">
      <name>Akunbar</name>
      <category>bar</category>
    </venue>
    <venue lat="45.8077358" lon="15.9965759">
      <name>Ambasada</name>
      <category>pub</category>
    </venue>
    <venue lat="45.7961008" lon="15.9697694">
      <name>Anera</name>
      <category>pub</category>
    </venue>
  </nightlife>
</city_report>
